[{
        "name": "Sydney",
        "country": "Australia",
        "image": "sydney.jpg",
        "night_image": "sydney_night.jpg",
        "lat": "-33.8",
        "lon": "151.2"
    },
    {
        "name": "New York City",
        "country": "United States",
        "image": "new_york_city.jpg",
        "night_image": "new_york_city_night.jpeg",
        "lat": "40.7128",
        "lon": "-74.0060"
    },
    {
        "name": "Santiago",
        "country": "Chile",
        "image": "santiago.jpg",
        "night_image": "santiago_night.jpg",
        "lat": "-33.4489",
        "lon": "-70.6693"
    },
    {
        "name": "Paris",
        "country": "France",
        "image": "paris.jpg",
        "night_image": "paris_night.jpg",
        "lat": "48.8566",
        "lon": "2.3522"
    },
    {
        "name": "Tokyo",
        "country": "Japan",
        "image": "tokyo.jpg",
        "night_image": "tokyo_night.jpg",
        "lat": "35.6762",
        "lon": "139.6503"
    },
    {
        "name": "San Francisco",
        "country": "United States",
        "image": "san_francisco.jpg",
        "night_image": "san_francisco_night.jpg",
        "lat": "37.773972",
        "lon": "-122.431297"
    },
    {
        "name": "Bishkek",
        "country": "Kyrgyzstan",
        "image": "bishkek.jpg",
        "night_image": "bishkek_night.jpg",
        "lat": "42.8746",
        "lon": "74.5698"
    },
    {
        "name": "Cape Town",
        "country": "South Africa",
        "image": "cape_town.jpg",
        "night_image": "cape_town_night.jpg",
        "lat": "-33.918861",
        "lon": "18.423300"
    },
    {
        "name": "Cairo",
        "country": "Egypt",
        "image": "cairo.jpg",
        "night_image": "cairo_night.jpg",
        "lat": "30.033333",
        "lon": "31.233334"
    },
    {

        "name": "Kathmandu",
        "country": "Nepal",
        "image": "kathmandu.jpg",
        "night_image": "kathmandu_night.jpg",
        "lat": "27.700769",
        "lon": "85.300140"
    },
    {

        "name": "Berlin",
        "country": "Germany",
        "image": "berlin.jpg",
        "night_image": "berlin_night.jpg",
        "lat": "52.520008",
        "lon": "13.404954"
    },
    {

        "name": "Rio De Janeiro",
        "country": "Brasil",
        "image": "rio.jpg",
        "night_image": "rio_night.jpg",
        "lat": "-22.9068",
        "lon": "-43.1729"
    },
    {

        "name": "Anchorage",
        "country": "United States",
        "image": "anchorage.jpg",
        "night_image": "anchorage_night.jpg",
        "lat": "61.2181",
        "lon": "-149.9003"
    },
    {

        "name": "Mexico City",
        "country": "Mexico",
        "image": "mexico_city.jpg",
        "night_image": "mexico_city_night.jpg",
        "lat": "19.4326",
        "lon": "-99.1332"
    },
    {

        "name": "Agra",
        "country": "India",
        "image": "agra.jpg",
        "night_image": "agra_night.jpg",
        "lat": "27.1767",
        "lon": "78.0081"
    }


]